{"routes": [{"destination": {"icao": "KATL", "iata": "ATL", "name": "Hartsfield Jackson Atlanta, Atlanta", "shortName": "Hartsfield Jackson", "municipalityName": "Atlanta", "location": {"lat": 33.6367, "lon": -84.4281}, "countryCode": "US"}, "averageDailyFlights": 14.83, "operators": [{"name": "Delta Air Lines"}, {"name": "Frontier"}, {"name": "Spirit"}]}, {"destination": {"icao": "KMCO", "iata": "MCO", "name": "Orlando, Orlando", "municipalityName": "Orlando", "location": {"lat": 28.4294, "lon": -81.309}, "countryCode": "US"}, "averageDailyFlights": 11.66, "operators": [{"name": "Delta Air Lines"}, {"name": "Frontier"}, {"name": "Southwest Airlines"}, {"name": "Spirit"}, {"name": "Spirit Airlines"}]}, {"destination": {"icao": "KORD", "iata": "ORD", "name": "Chicago O'Hare, Chicago", "shortName": "O'Hare", "municipalityName": "Chicago", "location": {"lat": 41.9786, "lon": -87.9048}, "countryCode": "US"}, "averageDailyFlights": 11.56, "operators": [{"name": "Air Wisconsin"}, {"name": "American"}, {"name": "Atlas Air"}, {"name": "China Southern Airlines"}, {"name": "Delta Air Lines"}, {"name": "Envoy Air"}, {"name": "Lufthansa"}, {"name": "Spirit Airlines"}, {"name": "United"}]}, {"destination": {"icao": "KLGA", "iata": "LGA", "name": "La Guardia, New York", "shortName": "La Guardia", "municipalityName": "New York", "location": {"lat": 40.7772, "lon": -73.8726}, "countryCode": "US"}, "averageDailyFlights": 11.43, "operators": [{"name": "American"}, {"name": "Delta Air Lines"}, {"name": "Spirit"}]}, {"destination": {"icao": "KLAS", "iata": "LAS", "name": "McCarran, Las Vegas", "shortName": "McCarran", "municipalityName": "Las Vegas", "location": {"lat": 36.0801, "lon": -115.152}, "countryCode": "US"}, "averageDailyFlights": 8.35, "operators": [{"name": "Delta Air Lines"}, {"name": "Frontier"}, {"name": "Spirit"}, {"name": "Spirit Airlines"}]}, {"destination": {"icao": "KBOS", "iata": "BOS", "name": "General Edward Lawrence Logan, Boston", "shortName": "General Edward Lawrence Logan", "municipalityName": "Boston", "location": {"lat": 42.3643, "lon": -71.0052}, "countryCode": "US"}, "averageDailyFlights": 7.72, "operators": [{"name": "Delta Air Lines"}, {"name": "Helijet International"}, {"name": "JetBlue Airways"}]}, {"destination": {"icao": "KPHX", "iata": "PHX", "name": "Phoenix Sky Harbor, Phoenix", "shortName": "Sky Harbor", "municipalityName": "Phoenix", "location": {"lat": 33.4343, "lon": -112.012}, "countryCode": "US"}, "averageDailyFlights": 7.43, "operators": [{"name": "American"}, {"name": "Delta Air Lines"}, {"name": "Frontier"}, {"name": "Southwest Airlines"}, {"name": "Spirit"}, {"name": "Spirit Airlines"}]}, {"destination": {"icao": "KLAX", "iata": "LAX", "name": "Los Angeles, Los Angeles", "municipalityName": "Los Angeles", "location": {"lat": 33.9425, "lon": -118.408}, "countryCode": "US"}, "averageDailyFlights": 7.3, "operators": [{"name": "Delta Air Lines"}, {"name": "Spirit"}, {"name": "Spirit Airlines"}]}, {"destination": {"icao": "KDEN", "iata": "DEN", "name": "Denver, Denver", "municipalityName": "Denver", "location": {"lat": 39.8617, "lon": -104.673}, "countryCode": "US"}, "averageDailyFlights": 7.29, "operators": [{"name": "Delta Air Lines"}, {"name": "Frontier"}, {"name": "Southwest"}, {"name": "United"}, {"name": "United Airlines"}]}, {"destination": {"icao": "KIAH", "iata": "IAH", "name": "George Bush Intercontinental Houston, Houston", "shortName": "George Bush Intercontinental", "municipalityName": "Houston", "location": {"lat": 29.9844, "lon": -95.3414}, "countryCode": "US"}, "averageDailyFlights": 7.18, "operators": [{"name": "Delta Air Lines"}, {"name": "Spirit"}, {"name": "Spirit Airlines"}, {"name": "United"}]}, {"destination": {"icao": "KFLL", "iata": "FLL", "name": "Fort Lauderdale Hollywood, Fort Lauderdale", "shortName": "Hollywood", "municipalityName": "Fort Lauderdale", "location": {"lat": 26.0726, "lon": -80.1527}, "countryCode": "US"}, "averageDailyFlights": 7.13, "operators": [{"name": "Delta Air Lines"}, {"name": "Spirit Airlines"}, {"name": "Spirit"}]}, {"destination": {"icao": "KCLT", "iata": "CLT", "name": "Charlotte Douglas, Charlotte", "shortName": "Douglas", "municipalityName": "Charlotte", "location": {"lat": 35.214, "lon": -80.9431}, "countryCode": "US"}, "averageDailyFlights": 7.0, "operators": [{"name": "American"}, {"name": "American Airlines"}, {"name": "Delta Air Lines"}]}, {"destination": {"icao": "KTPA", "iata": "TPA", "name": "Tampa, Tampa", "municipalityName": "Tampa", "location": {"lat": 27.9755, "lon": -82.5332}, "countryCode": "US"}, "averageDailyFlights": 6.65, "operators": [{"name": "Delta Air Lines"}, {"name": "Frontier"}, {"name": "Southwest Airlines"}, {"name": "Spirit"}, {"name": "Spirit Airlines"}]}, {"destination": {"icao": "KDFW", "iata": "DFW", "name": "Dallas Fort Worth, Dallas-Fort Worth", "shortName": "Dallas Fort Worth", "municipalityName": "Dallas-Fort Worth", "location": {"lat": 32.8968, "lon": -97.038}, "countryCode": "US"}, "averageDailyFlights": 6.51, "operators": [{"name": "American"}, {"name": "Delta Air Lines"}, {"name": "Spirit"}, {"name": "American Airlines"}]}, {"destination": {"icao": "KEWR", "iata": "EWR", "name": "Newark Liberty, Newark", "shortName": "Liberty", "municipalityName": "Newark", "location": {"lat": 40.6925, "lon": -74.1687}, "countryCode": "US"}, "averageDailyFlights": 6.51, "operators": [{"name": "Delta Air Lines"}, {"name": "United"}]}, {"destination": {"icao": "KPHL", "iata": "PHL", "name": "Philadelphia, Philadelphia", "municipalityName": "Philadelphia", "location": {"lat": 39.8719, "lon": -75.2411}, "countryCode": "US"}, "averageDailyFlights": 6.48, "operators": [{"name": "Delta Air Lines"}, {"name": "American"}, {"name": "Spirit"}]}, {"destination": {"icao": "KMSP", "iata": "MSP", "name": "Minneapolis-St Paul /Wold-Chamberlain, Minneapolis", "shortName": "St Paul /Wold-Chamberlain", "municipalityName": "Minneapolis", "location": {"lat": 44.882, "lon": -93.2218}, "countryCode": "US"}, "averageDailyFlights": 6.3, "operators": [{"name": "Delta Air Lines"}, {"name": "Spirit"}, {"name": "Spirit Airlines"}]}, {"destination": {"icao": "KJFK", "iata": "JFK", "name": "John F Kennedy, New York", "shortName": "John F Kennedy", "municipalityName": "New York", "location": {"lat": 40.6398, "lon": -73.7789}, "countryCode": "US"}, "averageDailyFlights": 6.29, "operators": [{"name": "Delta Air Lines"}, {"name": "JetBlue Airways"}]}, {"destination": {"icao": "KIAD", "iata": "IAD", "name": "Washington Dulles, District of Columbia", "shortName": "Washington Dulles", "municipalityName": "District of Columbia", "location": {"lat": 38.9445, "lon": -77.4558}, "countryCode": "US"}, "averageDailyFlights": 5.18, "operators": [{"name": "Delta Air Lines"}, {"name": "Nolinor"}, {"name": "United"}]}, {"destination": {"icao": "KDCA", "iata": "DCA", "name": "Ronald Reagan Washington National, District of Columbia", "shortName": "Ronald Reagan Washington National", "municipalityName": "District of Columbia", "location": {"lat": 38.8521, "lon": -77.0377}, "countryCode": "US"}, "averageDailyFlights": 5.14, "operators": [{"name": "Delta Air Lines"}, {"name": "American"}]}, {"destination": {"icao": "CYYZ", "iata": "YYZ", "name": "Lester B. Pearson, Toronto", "shortName": "Lester B. Pearson", "municipalityName": "Toronto", "location": {"lat": 43.6772, "lon": -79.6306}, "countryCode": "CA"}, "averageDailyFlights": 5.14, "operators": [{"name": "Air Canada"}, {"name": "Delta Air Lines"}]}, {"destination": {"icao": "CYUL", "iata": "YUL", "name": "Montr\u00e9al Pierre Elliott Trudeau, Montr\u00e9al", "shortName": "Pierre Elliott Trudeau", "municipalityName": "Montr\u00e9al", "location": {"lat": 45.4706, "lon": -73.7408}, "countryCode": "CA"}, "averageDailyFlights": 5.04, "operators": [{"name": "Delta Air Lines"}, {"name": "Air Canada"}]}, {"destination": {"icao": "KRSW", "iata": "RSW", "name": "Southwest Florida, Fort Myers", "shortName": "Southwest Florida", "municipalityName": "Fort Myers", "location": {"lat": 26.5362, "lon": -81.7552}, "countryCode": "US"}, "averageDailyFlights": 4.94, "operators": [{"name": "Delta Air Lines"}, {"name": "Spirit Airlines"}, {"name": "Spirit"}]}, {"destination": {"icao": "KSTL", "iata": "STL", "name": "Lambert St Louis, Saint Louis", "shortName": "Lambert St Louis", "municipalityName": "Saint Louis", "location": {"lat": 38.7487, "lon": -90.37}, "countryCode": "US"}, "averageDailyFlights": 4.78, "operators": [{"name": "Delta Air Lines"}, {"name": "Southwest"}]}, {"destination": {"icao": "KSLC", "iata": "SLC", "name": "Salt Lake City, Salt Lake City", "municipalityName": "Salt Lake City", "location": {"lat": 40.7884, "lon": -111.978}, "countryCode": "US"}, "averageDailyFlights": 4.71, "operators": [{"name": "Delta Air Lines"}]}, {"destination": {"icao": "KCVG", "iata": "CVG", "name": "Cincinnati Northern Kentucky, Cincinnati", "shortName": "Northern Kentucky", "municipalityName": "Cincinnati", "location": {"lat": 39.0488, "lon": -84.6678}, "countryCode": "US"}, "averageDailyFlights": 4.6, "operators": [{"name": "Delta Air Lines"}, {"name": "KII"}]}, {"destination": {"icao": "KAUS", "iata": "AUS", "name": "Austin Bergstrom, Austin", "shortName": "Bergstrom", "municipalityName": "Austin", "location": {"lat": 30.194498, "lon": -97.6699}, "countryCode": "US"}, "averageDailyFlights": 4.59, "operators": [{"name": "Delta Air Lines"}, {"name": "LXJ"}, {"name": "Spirit"}]}, {"destination": {"icao": "KSEA", "iata": "SEA", "name": "Seattle Tacoma, Seattle", "shortName": "Tacoma", "municipalityName": "Seattle", "location": {"lat": 47.449, "lon": -122.309}, "countryCode": "US"}, "averageDailyFlights": 4.43, "operators": [{"name": "Alaska"}, {"name": "Delta Air Lines"}]}, {"destination": {"icao": "MMUN", "iata": "CUN", "name": "Canc\u00fan, Canc\u00fan", "municipalityName": "Canc\u00fan", "location": {"lat": 21.0365, "lon": -86.8771}, "countryCode": "MX"}, "averageDailyFlights": 4.14, "operators": [{"name": "Delta Air Lines"}, {"name": "Spirit"}, {"name": "Spirit Airlines"}]}, {"destination": {"icao": "KALB", "iata": "ALB", "name": "Albany, Albany", "municipalityName": "Albany", "location": {"lat": 42.7483, "lon": -73.8017}, "countryCode": "US"}, "averageDailyFlights": 4.0, "operators": [{"name": "Delta Air Lines"}]}, {"destination": {"icao": "KGRR", "iata": "GRR", "name": "Gerald R. Ford, Grand Rapids", "shortName": "Gerald R. Ford", "municipalityName": "Grand Rapids", "location": {"lat": 42.8808, "lon": -85.5228}, "countryCode": "US"}, "averageDailyFlights": 3.91, "operators": [{"name": "Delta Air Lines"}, {"name": "NJM"}]}, {"destination": {"icao": "KMIA", "iata": "MIA", "name": "Miami, Miami", "municipalityName": "Miami", "location": {"lat": 25.7932, "lon": -80.2906}, "countryCode": "US"}, "averageDailyFlights": 3.89, "operators": [{"name": "Delta Air Lines"}, {"name": "American"}, {"name": "American Airlines"}, {"name": "GXA"}, {"name": "Spirit"}]}, {"destination": {"icao": "KMSN", "iata": "MSN", "name": "Dane County Regional Truax Field, Madison", "shortName": "Dane County Regional Truax Field", "municipalityName": "Madison", "location": {"lat": 43.1399, "lon": -89.3375}, "countryCode": "US"}, "averageDailyFlights": 3.86, "operators": [{"name": "Delta Air Lines"}]}, {"destination": {"icao": "KBNA", "iata": "BNA", "name": "Nashville, Nashville", "municipalityName": "Nashville", "location": {"lat": 36.1245, "lon": -86.6782}, "countryCode": "US"}, "averageDailyFlights": 3.81, "operators": [{"name": "Southwest"}, {"name": "Delta Air Lines"}, {"name": "JCM"}, {"name": "N2"}, {"name": "Southwest Airlines"}]}, {"destination": {"icao": "KROC", "iata": "ROC", "name": "Greater Rochester, Rochester", "shortName": "Greater", "municipalityName": "Rochester", "location": {"lat": 43.1189, "lon": -77.6724}, "countryCode": "US"}, "averageDailyFlights": 3.73, "operators": [{"name": "Delta Air Lines"}]}, {"destination": {"icao": "KIND", "iata": "IND", "name": "Indianapolis, Indianapolis", "municipalityName": "Indianapolis", "location": {"lat": 39.7173, "lon": -86.2944}, "countryCode": "US"}, "averageDailyFlights": 3.71, "operators": [{"name": "Delta Air Lines"}]}, {"destination": {"icao": "KRDU", "iata": "RDU", "name": "Raleigh Durham, Raleigh/Durham", "shortName": "Raleigh Durham", "municipalityName": "Raleigh/Durham", "location": {"lat": 35.8776, "lon": -78.7875}, "countryCode": "US"}, "averageDailyFlights": 3.71, "operators": [{"name": "Delta Air Lines"}]}, {"destination": {"icao": "KBUF", "iata": "BUF", "name": "Buffalo Niagara, Buffalo", "shortName": "Niagara", "municipalityName": "Buffalo", "location": {"lat": 42.9405, "lon": -78.7322}, "countryCode": "US"}, "averageDailyFlights": 3.54, "operators": [{"name": "Air Canada"}, {"name": "Delta Air Lines"}]}, {"destination": {"icao": "KMCI", "iata": "MCI", "name": "Kansas City, Kansas City", "municipalityName": "Kansas City", "location": {"lat": 39.2976, "lon": -94.7139}, "countryCode": "US"}, "averageDailyFlights": 3.47, "operators": [{"name": "United"}, {"name": "Delta Air Lines"}]}, {"destination": {"icao": "KSFO", "iata": "SFO", "name": "San Francisco, San Francisco", "municipalityName": "San Francisco", "location": {"lat": 37.619, "lon": -122.375}, "countryCode": "US"}, "averageDailyFlights": 3.29, "operators": [{"name": "Delta Air Lines"}]}, {"destination": {"icao": "KBWI", "iata": "BWI", "name": "Baltimore/Washington  Thurgood Marshall, Baltimore", "shortName": "Washington  Thurgood Marshall", "municipalityName": "Baltimore", "location": {"lat": 39.1754, "lon": -76.6683}, "countryCode": "US"}, "averageDailyFlights": 3.25, "operators": [{"name": "Southwest Airlines"}, {"name": "Delta Air Lines"}, {"name": "Southwest"}]}, {"destination": {"icao": "KMDW", "iata": "MDW", "name": "Chicago Midway, Chicago", "shortName": "Midway", "municipalityName": "Chicago", "location": {"lat": 41.786, "lon": -87.7524}, "countryCode": "US"}, "averageDailyFlights": 3.13, "operators": [{"name": "Delta Air Lines"}, {"name": "NetJets Aviation"}, {"name": "Southwest"}, {"name": "Southwest Airlines"}]}, {"destination": {"icao": "KPIT", "iata": "PIT", "name": "Pittsburgh, Pittsburgh", "municipalityName": "Pittsburgh", "location": {"lat": 40.4915, "lon": -80.2329}, "countryCode": "US"}, "averageDailyFlights": 3.04, "operators": [{"name": "Delta Air Lines"}, {"name": "Swift Air"}]}, {"destination": {"icao": "EHAM", "iata": "AMS", "name": "Amsterdam Schiphol, Amsterdam", "shortName": "Schiphol", "municipalityName": "Amsterdam", "location": {"lat": 52.3086, "lon": 4.763889}, "countryCode": "NL"}, "averageDailyFlights": 3.0, "operators": [{"name": "Delta Air Lines"}]}, {"destination": {"icao": "KSYR", "iata": "SYR", "name": "Syracuse Hancock, Syracuse", "shortName": "Hancock", "municipalityName": "Syracuse", "location": {"lat": 43.1112, "lon": -76.1063}, "countryCode": "US"}, "averageDailyFlights": 3.0, "operators": [{"name": "Delta Air Lines"}]}, {"destination": {"icao": "KRIC", "iata": "RIC", "name": "Richmond, Richmond", "municipalityName": "Richmond", "location": {"lat": 37.5052, "lon": -77.3197}, "countryCode": "US"}, "averageDailyFlights": 3.0, "operators": [{"name": "Delta Air Lines"}]}, {"destination": {"icao": "KCMH", "iata": "CMH", "name": "Port Columbus, Columbus", "shortName": "Port", "municipalityName": "Columbus", "location": {"lat": 39.998, "lon": -82.8919}, "countryCode": "US"}, "averageDailyFlights": 2.86, "operators": [{"name": "Delta Air Lines"}]}, {"destination": {"icao": "KMKE", "iata": "MKE", "name": "General Mitchell, Milwaukee", "shortName": "General Mitchell", "municipalityName": "Milwaukee", "location": {"lat": 42.9472, "lon": -87.8966}, "countryCode": "US"}, "averageDailyFlights": 2.76, "operators": [{"name": "Delta Air Lines"}]}, {"destination": {"icao": "KBDL", "iata": "BDL", "name": "Bradley, Hartford", "shortName": "Bradley", "municipalityName": "Hartford", "location": {"lat": 41.9389, "lon": -72.6832}, "countryCode": "US"}, "averageDailyFlights": 2.73, "operators": [{"name": "Delta Air Lines"}]}, {"destination": {"icao": "KSDF", "iata": "SDF", "name": "Louisville  Standiford Field, Louisville", "shortName": "Standiford Field", "municipalityName": "Louisville", "location": {"lat": 38.1744, "lon": -85.736}, "countryCode": "US"}, "averageDailyFlights": 2.71, "operators": [{"name": "Delta Air Lines"}]}, {"destination": {"icao": "KATW", "iata": "ATW", "name": "Appleton, Appleton", "municipalityName": "Appleton", "location": {"lat": 44.2581, "lon": -88.5191}, "countryCode": "US"}, "averageDailyFlights": 2.43, "operators": [{"name": "Delta Air Lines"}, {"name": "NTW"}]}, {"destination": {"icao": "KCLE", "iata": "CLE", "name": "Cleveland Hopkins, Cleveland", "shortName": "Hopkins", "municipalityName": "Cleveland", "location": {"lat": 41.4117, "lon": -81.8498}, "countryCode": "US"}, "averageDailyFlights": 2.41, "operators": [{"name": "Delta Air Lines"}, {"name": "NetJets Aviation"}]}, {"destination": {"icao": "KHPN", "iata": "HPN", "name": "Westchester County, White Plains", "shortName": "Westchester County", "municipalityName": "White Plains", "location": {"lat": 41.067, "lon": -73.7076}, "countryCode": "US"}, "averageDailyFlights": 2.37, "operators": [{"name": "Delta Air Lines"}]}, {"destination": {"icao": "KSAN", "iata": "SAN", "name": "San Diego, San Diego", "municipalityName": "San Diego", "location": {"lat": 32.7336, "lon": -117.19}, "countryCode": "US"}, "averageDailyFlights": 2.27, "operators": [{"name": "Delta Air Lines"}]}, {"destination": {"icao": "KTVC", "iata": "TVC", "name": "Cherry Capital, Traverse City", "shortName": "Cherry Capital", "municipalityName": "Traverse City", "location": {"lat": 44.7414, "lon": -85.5822}, "countryCode": "US"}, "averageDailyFlights": 2.2, "operators": [{"name": "Delta Air Lines"}]}, {"destination": {"icao": "KOMA", "iata": "OMA", "name": "Eppley Airfield, Omaha", "shortName": "Eppley Airfield", "municipalityName": "Omaha", "location": {"lat": 41.3032, "lon": -95.8941}, "countryCode": "US"}, "averageDailyFlights": 2.14, "operators": [{"name": "Delta Air Lines"}]}, {"destination": {"icao": "KAZO", "iata": "AZO", "name": "Kalamazoo Battle Creek, Kalamazoo", "shortName": "Battle Creek", "municipalityName": "Kalamazoo", "location": {"lat": 42.2349, "lon": -85.5521}, "countryCode": "US"}, "averageDailyFlights": 2.0, "operators": [{"name": "Delta Air Lines"}]}, {"destination": {"icao": "KLAN", "iata": "LAN", "name": "Capital City, Lansing", "shortName": "Capital City", "municipalityName": "Lansing", "location": {"lat": 42.7787, "lon": -84.5874}, "countryCode": "US"}, "averageDailyFlights": 2.0, "operators": [{"name": "Delta Air Lines"}]}, {"destination": {"icao": "KLEX", "iata": "LEX", "name": "Blue Grass, Lexington", "shortName": "Blue Grass", "municipalityName": "Lexington", "location": {"lat": 38.0365, "lon": -84.6059}, "countryCode": "US"}, "averageDailyFlights": 2.0, "operators": [{"name": "Delta Air Lines"}]}, {"destination": {"icao": "KMBS", "iata": "MBS", "name": "MBS, Saginaw", "shortName": "MBS", "municipalityName": "Saginaw", "location": {"lat": 43.5329, "lon": -84.0796}, "countryCode": "US"}, "averageDailyFlights": 2.0, "operators": [{"name": "Delta Air Lines"}]}, {"destination": {"icao": "KGRB", "iata": "GRB", "name": "Austin Straubel, Green Bay", "shortName": "Austin Straubel", "municipalityName": "Green Bay", "location": {"lat": 44.4851, "lon": -88.1296}, "countryCode": "US"}, "averageDailyFlights": 2.0, "operators": [{"name": "Delta Air Lines"}]}, {"destination": {"icao": "KMEM", "iata": "MEM", "name": "Memphis, Memphis", "municipalityName": "Memphis", "location": {"lat": 35.0424, "lon": -89.9767}, "countryCode": "US"}, "averageDailyFlights": 2.0, "operators": [{"name": "Delta Air Lines"}]}, {"destination": {"icao": "KORF", "iata": "ORF", "name": "Norfolk, Norfolk", "municipalityName": "Norfolk", "location": {"lat": 36.8946, "lon": -76.2012}, "countryCode": "US"}, "averageDailyFlights": 2.0, "operators": [{"name": "Delta Air Lines"}]}, {"destination": {"icao": "LFPG", "iata": "CDG", "name": "Charles de Gaulle, Paris", "shortName": "Charles de Gaulle", "municipalityName": "Paris", "location": {"lat": 49.0128, "lon": 2.549999}, "countryCode": "FR"}, "averageDailyFlights": 2.0, "operators": [{"name": "Air France"}, {"name": "Delta Air Lines"}]}, {"destination": {"icao": "KSAT", "iata": "SAT", "name": "San Antonio, San Antonio", "municipalityName": "San Antonio", "location": {"lat": 29.5337, "lon": -98.4698}, "countryCode": "US"}, "averageDailyFlights": 2.0, "operators": [{"name": "Delta Air Lines"}]}, {"destination": {"icao": "KDSM", "iata": "DSM", "name": "Des Moines, Des Moines", "municipalityName": "Des Moines", "location": {"lat": 41.534, "lon": -93.6631}, "countryCode": "US"}, "averageDailyFlights": 1.86, "operators": [{"name": "Delta Air Lines"}, {"name": "Libyan Airlines"}]}, {"destination": {"icao": "KMSY", "iata": "MSY", "name": "Louis Armstrong New Orleans, New Orleans", "shortName": "Louis Armstrong", "municipalityName": "New Orleans", "location": {"lat": 29.9934, "lon": -90.258}, "countryCode": "US"}, "averageDailyFlights": 1.86, "operators": [{"name": "Delta Air Lines"}, {"name": "Spirit"}]}, {"destination": {"icao": "EDDF", "iata": "FRA", "name": "Frankfurt-am-Main, Frankfurt-am-Main", "municipalityName": "Frankfurt-am-Main", "location": {"lat": 50.0264, "lon": 8.543129}, "countryCode": "DE"}, "averageDailyFlights": 1.86, "operators": [{"name": "Delta Air Lines"}, {"name": "Lufthansa"}]}, {"destination": {"icao": "KGSP", "iata": "GSP", "name": "Greenville Spartanburg, Greenville", "shortName": "Spartanburg", "municipalityName": "Greenville", "location": {"lat": 34.8957, "lon": -82.2189}, "countryCode": "US"}, "averageDailyFlights": 1.76, "operators": [{"name": "Delta Air Lines"}]}, {"destination": {"icao": "EGLL", "iata": "LHR", "name": "London Heathrow, London", "shortName": "Heathrow", "municipalityName": "London", "location": {"lat": 51.4706, "lon": -0.461941}, "countryCode": "GB"}, "averageDailyFlights": 1.71, "operators": [{"name": "Delta Air Lines"}]}, {"destination": {"icao": "KPLN", "iata": "PLN", "name": "Pellston Regional  of Emmet County, Pellston", "shortName": "Regional  of Emmet County", "municipalityName": "Pellston", "location": {"lat": 45.5709, "lon": -84.7967}, "countryCode": "US"}, "averageDailyFlights": 1.54, "operators": [{"name": "Delta Air Lines"}, {"name": "NetJets Aviation"}]}, {"destination": {"icao": "KPVD", "iata": "PVD", "name": "Theodore Francis Green State, Providence", "shortName": "Theodore Francis Green State", "municipalityName": "Providence", "location": {"lat": 41.7326, "lon": -71.4204}, "countryCode": "US"}, "averageDailyFlights": 1.51, "operators": [{"name": "Delta Air Lines"}]}, {"destination": {"icao": "KJAX", "iata": "JAX", "name": "Jacksonville, Jacksonville", "municipalityName": "Jacksonville", "location": {"lat": 30.4941, "lon": -81.6879}, "countryCode": "US"}, "averageDailyFlights": 1.43, "operators": [{"name": "Delta Air Lines"}]}, {"destination": {"icao": "PHNL", "iata": "HNL", "name": "Honolulu, Honolulu", "municipalityName": "Honolulu", "location": {"lat": 21.3187, "lon": -157.922}, "countryCode": "US"}, "averageDailyFlights": 1.14, "operators": [{"name": "Delta Air Lines"}]}, {"destination": {"icao": "RKSI", "iata": "ICN", "name": "Incheon, Seoul", "shortName": "Incheon", "municipalityName": "Seoul", "location": {"lat": 37.4691, "lon": 126.451}, "countryCode": "KR"}, "averageDailyFlights": 1.04, "operators": [{"name": "Delta Air Lines"}]}, {"destination": {"icao": "KPBI", "iata": "PBI", "name": "Palm Beach, West Palm Beach", "shortName": "Palm Beach", "municipalityName": "West Palm Beach", "location": {"lat": 26.6832, "lon": -80.0956}, "countryCode": "US"}, "averageDailyFlights": 1.02, "operators": [{"name": "Delta Air Lines"}]}, {"destination": {"icao": "MMMX", "iata": "MEX", "name": "Licenciado Benito Juarez, Mexico City", "shortName": "Licenciado Benito Juarez", "municipalityName": "Mexico City", "location": {"lat": 19.4363, "lon": -99.0721}, "countryCode": "MX"}, "averageDailyFlights": 1.02, "operators": [{"name": "Delta Air Lines"}]}, {"destination": {"icao": "KBHM", "iata": "BHM", "name": "Birmingham-Shuttlesworth, Birmingham", "shortName": "Shuttlesworth", "municipalityName": "Birmingham", "location": {"lat": 33.5629, "lon": -86.7535}, "countryCode": "US"}, "averageDailyFlights": 1.0, "operators": [{"name": "Delta Air Lines"}]}, {"destination": {"icao": "KCIU", "iata": "CIU", "name": "Chippewa County, Sault Ste Marie", "shortName": "Chippewa County", "municipalityName": "Sault Ste Marie", "location": {"lat": 46.2508, "lon": -84.4724}, "countryCode": "US"}, "averageDailyFlights": 1.0, "operators": [{"name": "Delta Air Lines"}]}, {"destination": {"icao": "KHSV", "iata": "HSV", "name": "Huntsville  Carl T Jones Field, Huntsville", "shortName": "Carl T Jones Field", "municipalityName": "Huntsville", "location": {"lat": 34.6372, "lon": -86.7751}, "countryCode": "US"}, "averageDailyFlights": 1.0, "operators": [{"name": "Delta Air Lines"}]}, {"destination": {"icao": "KELM", "iata": "ELM", "name": "Elmira Corning Regional, Elmira/Corning", "shortName": "Elmira Corning Regional", "municipalityName": "Elmira/Corning", "location": {"lat": 42.1599, "lon": -76.8916}, "countryCode": "US"}, "averageDailyFlights": 1.0, "operators": [{"name": "Delta Air Lines"}]}, {"destination": {"icao": "KTYS", "iata": "TYS", "name": "McGhee Tyson, Knoxville", "shortName": "McGhee Tyson", "municipalityName": "Knoxville", "location": {"lat": 35.811, "lon": -83.994}, "countryCode": "US"}, "averageDailyFlights": 1.0, "operators": [{"name": "Delta Air Lines"}, {"name": "NetJets Aviation"}]}, {"destination": {"icao": "KMYR", "iata": "MYR", "name": "Myrtle Beach, Myrtle Beach", "municipalityName": "Myrtle Beach", "location": {"lat": 33.6797, "lon": -78.9283}, "countryCode": "US"}, "averageDailyFlights": 1.0, "operators": [{"name": "Spirit"}]}, {"destination": {"icao": "MMMY", "iata": "MTY", "name": "General Mariano Escobedo, Monterrey", "shortName": "General Mariano Escobedo", "municipalityName": "Monterrey", "location": {"lat": 25.7785, "lon": -100.107}, "countryCode": "MX"}, "averageDailyFlights": 1.0, "operators": [{"name": "Aeromexico"}]}, {"destination": {"icao": "KPWM", "iata": "PWM", "name": "Portland  Jetport, Portland", "shortName": "Jetport", "municipalityName": "Portland", "location": {"lat": 43.6462, "lon": -70.3093}, "countryCode": "US"}, "averageDailyFlights": 1.0, "operators": [{"name": "Delta Air Lines"}]}, {"destination": {"icao": "MMPR", "iata": "PVR", "name": "Licenciado Gustavo D\u00edaz Ordaz, Puerto Vallarta", "shortName": "Licenciado Gustavo D\u00edaz Ordaz", "municipalityName": "Puerto Vallarta", "location": {"lat": 20.6801, "lon": -105.254}, "countryCode": "MX"}, "averageDailyFlights": 1.0, "operators": [{"name": "Delta Air Lines"}]}, {"destination": {"icao": "MDPC", "iata": "PUJ", "name": "Punta Cana, Punta Cana", "municipalityName": "Punta Cana", "location": {"lat": 18.567398, "lon": -68.3634}, "countryCode": "DO"}, "averageDailyFlights": 1.0, "operators": [{"name": "Delta Air Lines"}]}, {"destination": {"icao": "MMSD", "iata": "SJD", "name": "Los Cabos, San Jos\u00e9 del Cabo", "shortName": "Los Cabos", "municipalityName": "San Jos\u00e9 del Cabo", "location": {"lat": 23.1518, "lon": -109.721}, "countryCode": "MX"}, "averageDailyFlights": 1.0, "operators": [{"name": "Delta Air Lines"}]}, {"destination": {"icao": "RJTT", "iata": "HND", "name": "Tokyo, Tokyo", "municipalityName": "Tokyo", "location": {"lat": 35.5523, "lon": 139.78}, "countryCode": "JP"}, "averageDailyFlights": 1.0, "operators": [{"name": "Delta Air Lines"}]}, {"destination": {"icao": "KMDT", "iata": "MDT", "name": "Harrisburg, Harrisburg", "municipalityName": "Harrisburg", "location": {"lat": 40.1935, "lon": -76.7634}, "countryCode": "US"}, "averageDailyFlights": 0.88, "operators": [{"name": "Delta Air Lines"}, {"name": "JTZ"}]}, {"destination": {"icao": "KSAW", "iata": "MQT", "name": "Sawyer, Marquette", "shortName": "Sawyer", "municipalityName": "Marquette", "location": {"lat": 46.3536, "lon": -87.3954}, "countryCode": "US"}, "averageDailyFlights": 0.88, "operators": [{"name": "Delta Air Lines"}]}, {"destination": {"icao": "MKJS", "iata": "MBJ", "name": "Sangster, Montego Bay", "shortName": "Sangster", "municipalityName": "Montego Bay", "location": {"lat": 18.5037, "lon": -77.9134}, "countryCode": "JM"}, "averageDailyFlights": 0.88, "operators": [{"name": "Delta Air Lines"}]}, {"destination": {"icao": "KCHA", "iata": "CHA", "name": "Lovell Field, Chattanooga", "shortName": "Lovell Field", "municipalityName": "Chattanooga", "location": {"lat": 35.0353, "lon": -85.2038}, "countryCode": "US"}, "averageDailyFlights": 0.86, "operators": [{"name": "Delta Air Lines"}]}, {"destination": {"icao": "KSRQ", "iata": "SRQ", "name": "Sarasota Bradenton, Sarasota/Bradenton", "shortName": "Sarasota Bradenton", "municipalityName": "Sarasota/Bradenton", "location": {"lat": 27.3954, "lon": -82.5544}, "countryCode": "US"}, "averageDailyFlights": 0.86, "operators": [{"name": "Delta Air Lines"}]}, {"destination": {"icao": "KGSO", "iata": "GSO", "name": "Piedmont Triad, Greensboro", "shortName": "Piedmont Triad", "municipalityName": "Greensboro", "location": {"lat": 36.0978, "lon": -79.9373}, "countryCode": "US"}, "averageDailyFlights": 0.86, "operators": [{"name": "Delta Air Lines"}]}, {"destination": {"icao": "KESC", "iata": "ESC", "name": "Delta County, Escanaba", "shortName": "Delta County", "municipalityName": "Escanaba", "location": {"lat": 45.7227, "lon": -87.0937}, "countryCode": "US"}, "averageDailyFlights": 0.86, "operators": [{"name": "Delta Air Lines"}]}, {"destination": {"icao": "KAGS", "iata": "AGS", "name": "Augusta Regional At Bush Field, Augusta", "shortName": "Regional At Bush Field", "municipalityName": "Augusta", "location": {"lat": 33.3699, "lon": -81.9645}, "countryCode": "US"}, "averageDailyFlights": 0.71, "operators": [{"name": "Delta Air Lines"}]}, {"destination": {"icao": "KSNA", "iata": "SNA", "name": "John Wayne -Orange County, Santa Ana", "shortName": "John Wayne -Orange County", "municipalityName": "Santa Ana", "location": {"lat": 33.6757, "lon": -117.868}, "countryCode": "US"}, "averageDailyFlights": 0.71, "operators": [{"name": "Delta Air Lines"}]}, {"destination": {"icao": "KTHV", "iata": "THV", "name": "York, York", "municipalityName": "York", "location": {"lat": 39.917, "lon": -76.873}, "countryCode": "US"}, "averageDailyFlights": 0.43, "operators": [{"name": "JTZ"}, {"name": "American"}]}, {"destination": {"name": "Orlando"}, "averageDailyFlights": 0.43, "operators": [{"name": "Delta Air Lines"}, {"name": "Spirit"}]}, {"destination": {"icao": "KNZY", "iata": "NZY", "name": "North Island Naval Air Station-Halsey Field, San Diego", "shortName": "North Island Naval Air Station-Halsey Field", "municipalityName": "San Diego", "location": {"lat": 32.6992, "lon": -117.215}, "countryCode": "US"}, "averageDailyFlights": 0.33, "operators": [{"name": "Delta Air Lines"}]}, {"destination": {"icao": "KAPN", "iata": "APN", "name": "Alpena County Regional, Alpena", "shortName": "County Regional", "municipalityName": "Alpena", "location": {"lat": 45.0781, "lon": -83.5603}, "countryCode": "US"}, "averageDailyFlights": 0.31, "operators": [{"name": "Delta Air Lines"}]}, {"destination": {"icao": "KALN", "iata": "ALN", "name": "St Louis Regional, Alton/St Louis", "shortName": "St Louis Regional", "municipalityName": "Alton/St Louis", "location": {"lat": 38.8903, "lon": -90.046}, "countryCode": "US"}, "averageDailyFlights": 0.29, "operators": [{"name": "NOJ"}]}, {"destination": {"icao": "OJAI", "iata": "AMM", "name": "Queen Alia, Amman", "shortName": "Queen Alia", "municipalityName": "Amman", "location": {"lat": 31.7226, "lon": 35.9932}, "countryCode": "JO"}, "averageDailyFlights": 0.29, "operators": [{"name": "Royal Jordanian"}]}, {"destination": {"icao": "KASE", "iata": "ASE", "name": "Aspen-Pitkin Co/Sardy Field, Aspen", "shortName": "Pitkin Co/Sardy Field", "municipalityName": "Aspen", "location": {"lat": 39.2232, "lon": -106.869}, "countryCode": "US"}, "averageDailyFlights": 0.29, "operators": [{"name": "COL"}]}, {"destination": {"icao": "KBTV", "iata": "BTV", "name": "Burlington, Burlington", "municipalityName": "Burlington", "location": {"lat": 44.4719, "lon": -73.1533}, "countryCode": "US"}, "averageDailyFlights": 0.29, "operators": [{"name": "LXJ"}, {"name": "Delta Air Lines"}]}, {"destination": {"icao": "KDPA", "iata": "DPA", "name": "Dupage, Chicago/West Chicago", "shortName": "Dupage", "municipalityName": "Chicago/West Chicago", "location": {"lat": 41.9078, "lon": -88.2486}, "countryCode": "US"}, "averageDailyFlights": 0.29, "operators": [{"name": "NetJets Aviation"}, {"name": "Delta Air Lines"}]}, {"destination": {"icao": "KBMI", "iata": "BMI", "name": "Central Illinois Regional  at Bloomington-Normal, Bloomington/Normal", "shortName": "Central Illinois Regional  at Bloomington-Normal", "municipalityName": "Bloomington/Normal", "location": {"lat": 40.4771, "lon": -88.9159}, "countryCode": "US"}, "averageDailyFlights": 0.29, "operators": [{"name": "Delta Air Lines"}]}, {"destination": {"icao": "ZSPD", "iata": "PVG", "name": "Shanghai Pudong, Shanghai", "shortName": "Pudong", "municipalityName": "Shanghai", "location": {"lat": 31.1434, "lon": 121.805}, "countryCode": "CN"}, "averageDailyFlights": 0.29, "operators": [{"name": "Delta Air Lines"}]}, {"destination": {"name": "Indianapolis"}, "averageDailyFlights": 0.29, "operators": [{"name": "Delta Air Lines"}]}, {"destination": {"icao": "KABE", "iata": "ABE", "name": "Lehigh Valley, Allentown", "shortName": "Lehigh Valley", "municipalityName": "Allentown", "location": {"lat": 40.6521, "lon": -75.4408}, "countryCode": "US"}, "averageDailyFlights": 0.14, "operators": [{"name": "NetJets Aviation"}]}, {"destination": {"icao": "KBED", "iata": "BED", "name": "Laurence G Hanscom Field, Bedford", "shortName": "Laurence G Hanscom Field", "municipalityName": "Bedford", "location": {"lat": 42.47, "lon": -71.289}, "countryCode": "US"}, "averageDailyFlights": 0.14, "operators": [{"name": "FTD"}]}, {"destination": {"icao": "KCPS", "iata": "CPS", "name": "St Louis Downtown, Cahokia/St Louis", "shortName": "St Louis Downtown", "municipalityName": "Cahokia/St Louis", "location": {"lat": 38.5707, "lon": -90.1562}, "countryCode": "US"}, "averageDailyFlights": 0.14, "operators": [{"name": "Delta Air Lines"}]}, {"destination": {"icao": "KBAK", "iata": "CLU", "name": "Columbus Municipal, Columbus", "shortName": "Municipal", "municipalityName": "Columbus", "location": {"lat": 39.2619, "lon": -85.8963}, "countryCode": "US"}, "averageDailyFlights": 0.14, "operators": [{"name": "LXJ"}]}, {"destination": {"icao": "KCXY", "iata": "HAR", "name": "Capital City, Harrisburg", "shortName": "Capital City", "municipalityName": "Harrisburg", "location": {"lat": 40.2171, "lon": -76.8515}, "countryCode": "US"}, "averageDailyFlights": 0.14, "operators": [{"name": "Delta Air Lines"}]}, {"destination": {"icao": "KYIP", "iata": "YIP", "name": "Willow Run, Detroit", "shortName": "Willow Run", "municipalityName": "Detroit", "location": {"lat": 42.2379, "lon": -83.5304}, "countryCode": "US"}, "averageDailyFlights": 0.14, "operators": [{"name": "USA Jet Airlines"}]}, {"destination": {"icao": "KFAR", "iata": "FAR", "name": "Hector, Fargo", "shortName": "Hector", "municipalityName": "Fargo", "location": {"lat": 46.9207, "lon": -96.8158}, "countryCode": "US"}, "averageDailyFlights": 0.14, "operators": [{"name": "American"}]}, {"destination": {"icao": "KBIF", "iata": "BIF", "name": "Biggs Army Air Field (Fort Bliss), Fort Bliss/El Paso", "shortName": "Biggs Army Air Field (Fort Bliss", "municipalityName": "Fort Bliss/El Paso", "location": {"lat": 31.8495, "lon": -106.38}, "countryCode": "US"}, "averageDailyFlights": 0.14, "operators": [{"name": "National Airlines"}]}, {"destination": {"icao": "KGPT", "iata": "GPT", "name": "Gulfport Biloxi, Gulfport", "shortName": "Biloxi", "municipalityName": "Gulfport", "location": {"lat": 30.4073, "lon": -89.0701}, "countryCode": "US"}, "averageDailyFlights": 0.14, "operators": [{"name": "Sun Country Airlines"}]}, {"destination": {"icao": "KHOU", "iata": "HOU", "name": "William P Hobby, Houston", "shortName": "William P Hobby", "municipalityName": "Houston", "location": {"lat": 29.6454, "lon": -95.2789}, "countryCode": "US"}, "averageDailyFlights": 0.14, "operators": [{"name": "NetJets Aviation"}]}, {"destination": {"icao": "KPSP", "iata": "PSP", "name": "Palm Springs, Palm Springs", "municipalityName": "Palm Springs", "location": {"lat": 33.8297, "lon": -116.507}, "countryCode": "US"}, "averageDailyFlights": 0.14, "operators": [{"name": "EJM"}]}, {"destination": {"icao": "KECP", "iata": "ECP", "name": "Northwest Florida Beaches, Panama City Beach", "shortName": "Northwest Florida Beaches", "municipalityName": "Panama City Beach", "location": {"lat": 30.3417, "lon": -85.7973}, "countryCode": "US"}, "averageDailyFlights": 0.14, "operators": [{"name": "LXJ"}]}, {"destination": {"icao": "TJSJ", "iata": "SJU", "name": "Luis Munoz Marin, San Juan", "shortName": "Luis Munoz Marin", "municipalityName": "San Juan", "location": {"lat": 18.4394, "lon": -66.0018}, "countryCode": "PR"}, "averageDailyFlights": 0.14, "operators": [{"name": "Delta Air Lines"}]}, {"destination": {"icao": "KSUA", "iata": "SUA", "name": "Witham Field, Stuart", "shortName": "Witham Field", "municipalityName": "Stuart", "location": {"lat": 27.1817, "lon": -80.2211}, "countryCode": "US"}, "averageDailyFlights": 0.14, "operators": [{"name": "HPJ"}]}, {"destination": {"icao": "KVNY", "iata": "VNY", "name": "Van Nuys, Van Nuys", "municipalityName": "Van Nuys", "location": {"lat": 34.2098, "lon": -118.49}, "countryCode": "US"}, "averageDailyFlights": 0.14, "operators": [{"name": "LXJ"}]}, {"destination": {"icao": "KAVP", "iata": "AVP", "name": "Wilkes Barre Scranton, Wilkes-Barre/Scranton", "shortName": "Wilkes Barre Scranton", "municipalityName": "Wilkes-Barre/Scranton", "location": {"lat": 41.3385, "lon": -75.7234}, "countryCode": "US"}, "averageDailyFlights": 0.14, "operators": [{"name": "My Jet Xpress Airlines"}]}, {"destination": {"name": "District of Columbia"}, "averageDailyFlights": 0.14, "operators": [{"name": "Delta Air Lines"}]}, {"destination": {"name": "Madison"}, "averageDailyFlights": 0.14, "operators": [{"name": "Delta Air Lines"}]}, {"destination": {"name": "Miami"}, "averageDailyFlights": 0.14, "operators": [{"name": "Delta Air Lines"}]}, {"destination": {"name": "Raleigh"}, "averageDailyFlights": 0.14, "operators": [{"name": "Delta Air Lines"}]}, {"destination": {"name": "Rochester"}, "averageDailyFlights": 0.14, "operators": [{"name": "Delta Air Lines"}]}, {"destination": {"name": "Syracuse"}, "averageDailyFlights": 0.14, "operators": [{"name": "Delta Air Lines"}]}]}